[
{ "name": "Beijing", "province": "Beijing", "coordinates": [116.4000, 39.9100] },
{ "name": "Hong Kong", "province": "Hong Kong", "coordinates": [114.1589, 22.2783] },
{ "name": "Anqing", "province": "Anhui", "coordinates": [117.0333, 30.5000] },
{ "name": "Chuzhou", "province": "Anhui", "coordinates": [118.2978, 32.3219] },
{ "name": "Fuyang", "province": "Anhui", "coordinates": [115.8167, 32.9000] },
{ "name": "Haozhou", "province": "Anhui", "coordinates": [115.7500, 33.8667] },
{ "name": "Hefei", "province": "Anhui", "coordinates": [117.2833, 31.8667] },
{ "name": "Tianchang", "province": "Anhui", "coordinates": [119.677, 33.1542] },
{ "name": "Xuancheng", "province": "Anhui", "coordinates": [118.7333, 30.9333] },
{ "name": "Changshu", "province": "Jiangsu", "coordinates": [120.7333, 31.6500] },
{ "name": "Changzhou", "province": "Jiangsu", "coordinates": [119.9667, 31.7833] },
{ "name": "Fuzhou", "province": "Fujian", "coordinates": [119.3036, 26.0711] },
{ "name": "Fuqing", "province": "Fujian", "coordinates": [119.3833, 25.7167] },
{ "name": "Longyan", "province": "Fujian", "coordinates": [117.0167, 25.0833] },
{ "name": "Jinjiang", "province": "Fujian", "coordinates": [118.5700, 24.8200] },
{ "name": "Quanzhou", "province": "Fujian", "coordinates": [118.5833, 24.9167] },
{ "name": "Ningde", "province": "Fujian", "coordinates": [119.5167, 26.6667] },
{ "name": "Shishi", "province": "Fujian", "coordinates": [118.7000, 24.7167] },
{ "name": "Xiamen", "province": "Fujian", "coordinates": [118.0894, 24.4798] },
{ "name": "Sanming", "province": "Fujian", "coordinates": [117.6167, 26.2500] },
{ "name": "Zhangzhou", "province": "Fujian", "coordinates": [117.6500, 24.5167] },
{ "name": "Hangzhou", "province": "Zhejiang", "coordinates": [120.1769, 30.2731] },
{ "name": "Huizhou", "province": "Guangdong", "coordinates": [114.3833, 23.0667] },
{ "name": "Kaiping", "province": "Guangdong", "coordinates": [112.6833, 22.3667] },
{ "name": "Dongguan", "province": "Guangdong", "coordinates": [113.7167, 23.0333] },
{ "name": "Yangjiang", "province": "Guangdong", "coordinates": [111.9667, 21.8500] },
{ "name": "Shenzhen", "province": "Guangdong", "coordinates": [114.1333, 22.5333] },
{ "name": "Guangzhou", "province": "Guangdong", "coordinates": [113.2667, 23.1333] },
{ "name": "Foshan", "province": "Guangdong", "coordinates": [113.1167, 23.0167] },
{ "name": "Meizhou", "province": "Guangdong", "coordinates": [116.1160, 24.2770] },
{ "name": "Jiangmen", "province": "Guangdong", "coordinates": [113.0667, 22.5667] },
{ "name": "Zhaoqing", "province": "Guangdong", "coordinates": [112.4667, 23.0500] },
{ "name": "Zhongshan", "province": "Guangdong", "coordinates": [113.3500, 22.5333] },
{ "name": "Taicang", "province": "Jiangsu", "coordinates": [121.1000, 31.4500] },
{ "name": "Kaifeng", "province": "Henan", "coordinates": [114.3481, 34.7911] },
{ "name": "Zhengzhou", "province": "Henan", "coordinates": [113.6500, 34.7667] },
{ "name": "Kunshan", "province": "Jiangsu", "coordinates": [120.9514, 31.3844] },
{ "name": "Langfang", "province": "Hebei", "coordinates": [116.7000, 39.5167] },
{ "name": "Shanghai", "province": "Shanghai", "coordinates": [121.5000, 31.2000] },
{ "name": "Liyang", "province": "Jiangsu", "coordinates": [119.4667, 31.4167] },
{ "name": "Nanjing", "province": "Jiangsu", "coordinates": [118.7667, 32.0500] },
{ "name": "Suzhou", "province": "Jiangsu", "coordinates": [120.6000, 31.3167] },
{ "name": "Suqian", "province": "Jiangsu", "coordinates": [118.2833, 33.9333] },
{ "name": "Xuzhou", "province": "Jiangsu", "coordinates": [117.1667, 34.2667] },
{ "name": "Huai'an", "province": "Jiangsu", "coordinates": [119.1333, 33.5000] },
{ "name": "Wenzhou", "province": "Zhejiang", "coordinates": [120.6561, 27.9992] },
{ "name": "Wuxi", "province": "Jiangsu", "coordinates": [120.2833, 31.5667] },
{ "name": "Changsha", "province": "Hunan", "coordinates": [112.9722, 28.1961] }, 
{ "name": "Loudi", "province": "Hunan", "coordinates": [112.0000, 27.7333] }, 
{ "name": "Shaoyang", "province": "Hunan", "coordinates": [111.466667, 27.25] },
{ "name": "Wugang", "province": "Hunan", "coordinates": [110.6333, 26.7333] },
{ "name": "Yongzhou", "province": "Hunan", "coordinates": [111.6167, 26.2167] }, 
{ "name": "Yueyang", "province": "Hunan", "coordinates": [113.1000, 29.3667] }, 
{ "name": "Yancheng", "province": "Jiangsu", "coordinates": [120.1167, 33.3833] },
{ "name": "Yangzhou", "province": "Jiangsu", "coordinates": [119.4167, 32.3833] },
{ "name": "Yichun", "province": "Jiangxi", "coordinates": [114.3833, 27.8000] },
{ "name": "Nanchang", "province": "Jiangxi", "coordinates": [115.8833, 28.6833] },
{ "name": "Zhenjiang", "province": "Jiangsu", "coordinates": [119.4167, 32.2000] },
{ "name": "Zhenzhou", "province": "Henan", "coordinates": [113.6419, 34.7603] },
{ "name": "Zhoukou", "province": "Henan", "coordinates": [114.6333, 33.6333] },
{ "name": "Zaozhuang", "province": "Shandong", "coordinates": [117.55, 34.866667] },
{ "name": "Guangxi", "province": "Guangxi", "coordinates": [108.3000, 23.6000] },
{ "name": "Hezhou", "province": "Guangxi", "coordinates": [111.5478, 24.4164] },
{ "name": "Nanning", "province": "Guangxi", "coordinates": [108.3167, 22.8167] },
{ "name": "Huzhou", "province": "Zhejiang", "coordinates": [120.1000, 30.8667] },
{ "name": "Jiande", "province": "Zhejiang", "coordinates": [119.3370, 29.4896] },
{ "name": "Jiaxing", "province": "Zhejiang", "coordinates": [120.7500, 30.7667] },
{ "name": "Shaoxing", "province": "Zhejiang", "coordinates": [120.5833, 30.0000] },
{ "name": "Yiwu", "province": "Zhejiang", "coordinates": [120.1000, 29.5344] }, 
{ "name": "Zhuji", "province": "Zhejiang", "coordinates": [120.2333, 29.7167] },
{ "name": "Ningbo", "province": "Zhejiang", "coordinates": [121.5500, 29.8667] },
{ "name": "Taizhou", "province": "Zhejiang", "coordinates": [121.3500, 28.6667] },
{ "name": "Jinhua", "province": "Zhejiang", "coordinates": [120.0667, 29.3000] },
{ "name": "Lishui", "province": "Zhejiang", "coordinates": [119.9167, 28.4500] },
{ "name": "Jinhua", "province": "Zhejiang", "coordinates": [120.0667, 29.3000] }
]
